[{"name":"レッドバロン北見","address":"北海道北見市西三輪6丁目1-14","longitude":"143.837259","latitude":"43.796791"},{"name":"レッドバロン旭川","address":"北海道旭川市末広東2条3丁目4-11","longitude":"142.391676","latitude":"43.801019"},{"name":"レッドバロン釧路","address":"北海道釧路市鳥取大通8丁目3-2","longitude":"144.337367","latitude":"43.017087"},{"name":"レッドバロン帯広","address":"北海道帯広市西11条北1丁目18","longitude":"143.161085","latitude":"42.933157"},{"name":"レッドバロン苫小牧","address":"北海道苫小牧市新開町1-1-5","longitude":"141.659665","latitude":"42.664226"},{"name":"レッドバロン手稲","address":"北海道札幌市手稲区稲穂2条4丁目13-5","longitude":"141.221878","latitude":"43.125026"},{"name":"レッドバロン札幌","address":"北海道札幌市西区八軒10条西11-1-45","longitude":"141.305234","latitude":"43.10017"},{"name":"レッドバロン環状北大店","address":"北海道札幌市北区北15条西3丁目1番7号","longitude":"141.348317","latitude":"43.078538"},{"name":"レッドバロン新札幌","address":"北海道札幌市厚別区厚別中央3条4丁目6-30","longitude":"141.467777","latitude":"43.039242"},{"name":"レッドバロンミュンヘン","address":"北海道札幌市豊平区平岸1条22-1-1","longitude":"141.356332","latitude":"43.016192"},{"name":"レッドバロン羊ヶ丘店","address":"北海道札幌市清田区真栄4条3丁目1-11","longitude":"141.444003","latitude":"42.987214"},{"name":"レッドバロン函館","address":"北海道函館市昭和4丁目1-12","longitude":"140.735301","latitude":"41.809696"},{"name":"レッドバロン青森","address":"青森県青森市問屋町1丁目2-9","longitude":"140.76036","latitude":"40.791387"},{"name":"レッドバロン弘前","address":"青森県弘前市末広2丁目2-6","longitude":"140.500597","latitude":"40.601699"},{"name":"レッドバロン八戸","address":"青森県八戸市青葉3-15-21","longitude":"141.510903","latitude":"40.508177"},{"name":"レッドバロン盛岡","address":"岩手県盛岡市館向町40-22","longitude":"141.130015","latitude":"39.723748"},{"name":"レッドバロン奥州","address":"岩手県奥州市水沢太日通り1丁目7-7","longitude":"141.149731","latitude":"39.134349"},{"name":"レッドバロン秋田","address":"秋田県秋田市山王新町1-24","longitude":"140.09466","latitude":"39.718572"},{"name":"レッドバロン横手","address":"秋田県横手市八幡字八幡207-1","longitude":"140.554931","latitude":"39.321307"},{"name":"レッドバロン古川","address":"宮城県大崎市古川沢田字立海道110","longitude":"140.975616","latitude":"38.601389"},{"name":"レッドバロン石巻","address":"宮城県石巻市門脇字元浦屋敷21-1","longitude":"141.261368","latitude":"38.430456"},{"name":"レッドバロン宮城本店","address":"宮城県仙台市泉区虹の丘1-1-5","longitude":"140.878704","latitude":"38.307422"},{"name":"レッドバロン仙台","address":"宮城県仙台市宮城野区岩切3丁目24-3","longitude":"140.930093","latitude":"38.295874"},{"name":"レッドバロン仙台東","address":"宮城県仙台市若林区かすみ町8-48","longitude":"140.920252","latitude":"38.241528"},{"name":"レッドバロン仙台南","address":"宮城県仙台市太白区鈎取1-5-12","longitude":"140.847582","latitude":"38.220934"},{"name":"レッドバロン鶴岡","address":"山形県鶴岡市日出2丁目9-3","longitude":"139.847835","latitude":"38.720899"},{"name":"レッドバロン山形","address":"山形県山形市鈴川町4-5-67","longitude":"140.360361","latitude":"38.271125"},{"name":"レッドバロン米沢","address":"山形県米沢市万世町片子5133-3","longitude":"140.138156","latitude":"37.903356"},{"name":"レッドバロン福島北","address":"福島県福島市瀬上町字四斗蒔31-4","longitude":"140.490934","latitude":"37.801373"},{"name":"レッドバロン会津若松","address":"福島県会津若松市町北町大字上荒久田字村北103-1","longitude":"139.926359","latitude":"37.518264"},{"name":"レッドバロン郡山","address":"福島県郡山市富田町字菱内14-5","longitude":"140.344159","latitude":"37.416779"},{"name":"レッドバロン須賀川","address":"福島県須賀川市森宿字ヒジリ田54-24","longitude":"140.365806","latitude":"37.312645"},{"name":"レッドバロンいわき","address":"福島県いわき市小名浜岡小名字御代坂14-1","longitude":"140.904924","latitude":"36.970422"},{"name":"レッドバロン日立","address":"茨城県日立市森山町3-1-36","longitude":"140.616839","latitude":"36.526603"},{"name":"レッドバロン水戸","address":"茨城県水戸市大塚町1841-22","longitude":"140.404049","latitude":"36.382707"},{"name":"レッドバロン茨城","address":"茨城県ひたちなか市枝川1575-1","longitude":"140.501957","latitude":"36.384254"},{"name":"レッドバロン筑波山","address":"茨城県下妻市高道祖1373-3","longitude":"140.00445","latitude":"36.18753"},{"name":"レッドバロン土浦","address":"茨城県土浦市大字中820-1","longitude":"140.172906","latitude":"36.052007"},{"name":"レッドバロン鹿嶋","address":"茨城県鹿嶋市大字宮中5255-6","longitude":"140.639889","latitude":"35.970606"},{"name":"レッドバロン取手","address":"茨城県取手市小浮気550-1","longitude":"140.10035","latitude":"35.917638"},{"name":"レッドバロン那須","address":"栃木県那須塩原市東小屋453-1","longitude":"140.025784","latitude":"36.93008"},{"name":"レッドバロン宇都宮北","address":"栃木県宇都宮市上戸祭2丁目2-13","longitude":"139.863936","latitude":"36.588662"},{"name":"レッドバロン宇都宮","address":"栃木県宇都宮市西原町530-13","longitude":"139.881484","latitude":"36.532987"},{"name":"レッドバロン小山","address":"栃木県小山市駅南町4丁目28-27","longitude":"139.809771","latitude":"36.299862"},{"name":"レッドバロン佐野","address":"栃木県佐野市若宮下町5-2","longitude":"139.587511","latitude":"36.292639"},{"name":"レッドバロン足利","address":"栃木県足利市山川町896-1","longitude":"139.48192","latitude":"36.325319"},{"name":"レッドバロン太田店","address":"群馬県太田市高林東町1723-2","longitude":"139.374268","latitude":"36.260527"},{"name":"レッドバロン群馬","address":"群馬県伊勢崎市赤堀今井町1丁目244-6","longitude":"139.212736","latitude":"36.37634"},{"name":"レッドバロン前橋","address":"群馬県前橋市元総社町字落合660","longitude":"139.037907","latitude":"36.37959"},{"name":"レッドバロン高崎","address":"群馬県高崎市下中居町字下之城境123-2","longitude":"139.036976","latitude":"36.308299"},{"name":"レッドバロン埼玉北店","address":"埼玉県深谷市岡一丁目17-2","longitude":"139.543577","latitude":"35.741417"},{"name":"レッドバロン熊谷","address":"埼玉県熊谷市肥塚1171-1","longitude":"139.388168","latitude":"36.165231"},{"name":"レッドバロン鴻巣","address":"埼玉県鴻巣市東3丁目1-1","longitude":"139.517918","latitude":"36.063208"},{"name":"レッドバロン春日部","address":"埼玉県春日部市増富733-1","longitude":"139.734306","latitude":"35.967337"},{"name":"レッドバロン越谷","address":"埼玉県越谷市大字袋山1788-4","longitude":"139.774785","latitude":"35.916815"},{"name":"レッドバロン三郷","address":"埼玉県三郷市上彦名278","longitude":"139.850543","latitude":"35.849443"},{"name":"レッドバロン草加","address":"埼玉県草加市谷塚仲町249-4","longitude":"139.79356","latitude":"35.81195"},{"name":"レッドバロン上尾","address":"埼玉県上尾市日の出3-6-1","longitude":"139.607715","latitude":"35.963221"},{"name":"レッドバロン大宮","address":"埼玉県さいたま市見沼区風渡野207","longitude":"139.671625","latitude":"35.934619"},{"name":"レッドバロン浦和東","address":"埼玉県さいたま市緑区三室50-5","longitude":"139.666976","latitude":"35.8857"},{"name":"レッドバロン与野","address":"埼玉県さいたま市中央区桜丘2-2-14","longitude":"139.616096","latitude":"35.881799"},{"name":"レッドバロンわらび","address":"埼玉県蕨市錦町五丁目13-46","longitude":"139.671543","latitude":"35.83174"},{"name":"レッドバロン川口南","address":"埼玉県川口市朝日2丁目28-12","longitude":"139.73445","latitude":"35.810933"},{"name":"レッドバロン東松山254号店","address":"埼玉県東松山市古凍894-2","longitude":"139.4356","latitude":"36.011262"},{"name":"レッドバロン川越","address":"埼玉県川越市岸町2-9-3","longitude":"139.490397","latitude":"35.897516"},{"name":"レッドバロン狭山","address":"埼玉県狭山市入間川2-30-15","longitude":"139.409983","latitude":"35.866247"},{"name":"レッドバロン所沢","address":"埼玉県所沢市けやき台1丁目13-12","longitude":"139.45372","latitude":"35.797478"},{"name":"レッドバロン新座","address":"埼玉県新座市野火止4-5-43","longitude":"139.559543","latitude":"35.8004"},{"name":"レッドバロン和光","address":"埼玉県和光市白子3-1-15","longitude":"139.623871","latitude":"35.784765"},{"name":"レッドバロン野田","address":"千葉県野田市中根287-1","longitude":"139.884569","latitude":"35.944363"},{"name":"レッドバロン柏6号店","address":"千葉県千葉県柏市旭町5丁目3-40","longitude":"139.962505","latitude":"35.855819"},{"name":"レッドバロン柏","address":"千葉県柏市大津ヶ丘1丁目41-7","longitude":"140.001833","latitude":"35.842187"},{"name":"レッドバロン松戸","address":"千葉県松戸市中根137-3","longitude":"139.91645","latitude":"35.806431"},{"name":"レッドバロン鎌ヶ谷","address":"千葉県鎌ヶ谷市初富本町1-2-13","longitude":"139.999774","latitude":"35.773284"},{"name":"レッドバロン成田","address":"千葉県成田市並木町219-112","longitude":"140.305579","latitude":"35.752665"},{"name":"レッドバロン佐倉","address":"千葉県佐倉市寺崎北3丁目1-10","longitude":"140.221296","latitude":"35.713254"},{"name":"レッドバロン八千代","address":"千葉県八千代市勝田台南3丁目23-10","longitude":"140.119207","latitude":"35.709207"},{"name":"レッドバロン船橋","address":"千葉県船橋市習志野台8-18-15","longitude":"140.063283","latitude":"35.716599"},{"name":"レッドバロン船橋海神店","address":"千葉県船橋市海神1丁目17-6","longitude":"139.975902","latitude":"35.700966"},{"name":"レッドバロン幕張","address":"千葉県千葉市花見川区幕張本郷2丁目22-20","longitude":"140.039053","latitude":"35.667027"},{"name":"レッドバロン千葉本店","address":"千葉県千葉市中央区東千葉2-31-24","longitude":"140.128094","latitude":"35.624263"},{"name":"レッドバロン千葉東","address":"千葉県千葉市中央区仁戸名町485-7","longitude":"140.160719","latitude":"35.587735"},{"name":"レッドバロン千葉南店","address":"千葉県千葉市緑区古市場町395-1","longitude":"140.150434","latitude":"35.544095"},{"name":"レッドバロン茂原","address":"千葉県茂原市小林2587-2","longitude":"140.29454","latitude":"35.445533"},{"name":"レッドバロン袖ヶ浦","address":"千葉県袖ケ浦市福王台2丁目12-12","longitude":"139.965412","latitude":"35.430652"},{"name":"レッドバロン環七江北店","address":"東京都足立区江北3丁目36-5","longitude":"139.763197","latitude":"35.778077"},{"name":"レッドバロン葛飾","address":"東京都葛飾区四つ木2丁目4-7","longitude":"139.836064","latitude":"35.736705"},{"name":"レッドバロン江戸川","address":"東京都江戸川区大杉4-3-4","longitude":"139.880223","latitude":"35.709125"},{"name":"レッドバロン練馬","address":"東京都練馬区貫井5丁目29-9","longitude":"139.630148","latitude":"35.744269"},{"name":"レッドバロン東京大田","address":"東京都大田区仲六郷4-34-10","longitude":"139.710822","latitude":"35.543471"},{"name":"レッドバロン小平","address":"東京都小平市大沼町4丁目28-43","longitude":"139.497327","latitude":"35.742723"},{"name":"レッドバロン府中","address":"東京都府中市白糸台3-41-1","longitude":"139.518972","latitude":"35.666036"},{"name":"レッドバロン狛江","address":"東京都狛江市元和泉3丁目7-1","longitude":"139.571994","latitude":"35.627731"},{"name":"レッドバロン東大和","address":"東京都東大和市芋窪5丁目1107-1","longitude":"139.416857","latitude":"35.747127"},{"name":"レッドバロン立川","address":"東京都立川市錦町6丁目27-10","longitude":"139.416268","latitude":"35.685584"},{"name":"レッドバロン瑞穂","address":"東京都西多摩郡瑞穂町大字長岡長谷部265-1","longitude":"139.327234","latitude":"35.780617"},{"name":"レッドバロン昭島","address":"東京都昭島市田中町2丁目28-37","longitude":"139.350577","latitude":"35.705303"},{"name":"レッドバロン八王子本店","address":"東京都八王子市大和田町1丁目1-1","longitude":"139.36197","latitude":"35.664938"},{"name":"レッドバロン八王子南店","address":"東京都八王子市堀之内2-9-20","longitude":"139.398152","latitude":"35.628376"},{"name":"レッドバロン町田","address":"東京都町田市小川7丁目7番50号","longitude":"139.475348","latitude":"35.513908"},{"name":"レッドバロン甲府昭和店","address":"山梨県甲府市下飯田3丁目8-10","longitude":"138.550519","latitude":"35.660397"},{"name":"レッドバロン甲府","address":"山梨県甲府市西高橋町194-1","longitude":"138.596856","latitude":"35.641842"},{"name":"レッドバロン富士吉田","address":"山梨県富士吉田市下吉田 六丁目24番18号","longitude":"138.810062","latitude":"35.481673"},{"name":"レッドバロン川崎幸店","address":"神奈川県川崎市幸区北加瀬3丁目14-25","longitude":"139.659233","latitude":"35.556844"},{"name":"レッドバロン川崎本店","address":"神奈川県川崎市高津区下作延2-30-15","longitude":"139.604883","latitude":"35.598884"},{"name":"レッドバロン都筑","address":"神奈川県横浜市都筑区早渕3-32-16","longitude":"139.60494","latitude":"35.551649"},{"name":"レッドバロン市ヶ尾","address":"神奈川県横浜市青葉区市ヶ尾町518-6","longitude":"139.546952","latitude":"35.543914"},{"name":"レッドバロン鶴見１号店","address":"神奈川県横浜市鶴見区東寺尾中台7-11","longitude":"139.662336","latitude":"35.508121"},{"name":"レッドバロン新横浜","address":"神奈川県横浜市神奈川区三ツ沢上町30-14","longitude":"139.60152","latitude":"35.478559"},{"name":"レッドバロン横浜旭","address":"神奈川県横浜市旭区都岡町43-3","longitude":"139.525252","latitude":"35.488765"},{"name":"レッドバロン戸塚","address":"神奈川県横浜市戸塚区戸塚町3156-74","longitude":"139.522976","latitude":"35.391692"},{"name":"レッドバロン港南","address":"神奈川県横浜市港南区日野5丁目23-17","longitude":"139.584959","latitude":"35.394593"},{"name":"レッドバロン磯子","address":"神奈川県横浜市磯子区磯子1-1-11","longitude":"139.626451","latitude":"35.414159"},{"name":"レッドバロン釜利谷店","address":"神奈川県横浜市金沢区釜利谷東2丁目7-12","longitude":"139.613701","latitude":"35.344574"},{"name":"レッドバロン神奈川","address":"神奈川県相模原市中央区中央2-13-6","longitude":"139.374191","latitude":"35.572431"},{"name":"レッドバロン座間","address":"神奈川県座間市西栗原1-7-29","longitude":"139.414636","latitude":"35.475824"},{"name":"レッドバロン厚木","address":"神奈川県厚木市三田南3-1-7","longitude":"139.348096","latitude":"35.471802"},{"name":"レッドバロン横須賀","address":"神奈川県横須賀市衣笠町39-1","longitude":"139.661914","latitude":"35.241973"},{"name":"レッドバロン鎌倉","address":"神奈川県鎌倉市笛田1丁目1-3","longitude":"139.516282","latitude":"35.330295"},{"name":"レッドバロン藤沢","address":"神奈川県藤沢市長後928-17","longitude":"139.469528","latitude":"35.418401"},{"name":"レッドバロン茅ヶ崎","address":"神奈川県茅ヶ崎市今宿899-1","longitude":"139.377073","latitude":"35.332635"},{"name":"レッドバロン平塚","address":"神奈川県平塚市田村6丁目21-16","longitude":"139.362067","latitude":"35.379616"},{"name":"レッドバロン秦野","address":"神奈川県秦野市曽屋1288-1","longitude":"139.216983","latitude":"35.379843"},{"name":"レッドバロン長野北","address":"長野県長野市大字北尾張部387-1","longitude":"138.236313","latitude":"36.65519"},{"name":"レッドバロン長野中央店","address":"長野県長野市若里4丁目11-1","longitude":"138.183264","latitude":"36.630257"},{"name":"レッドバロン長野","address":"長野県長野市合戦場2-111","longitude":"138.160249","latitude":"36.579906"},{"name":"レッドバロン佐久","address":"長野県長野県佐久市長土呂546-5","longitude":"138.47412","latitude":"36.286851"},{"name":"レッドバロン穂高","address":"長野県安曇野市穂高4892-1","longitude":"137.884379","latitude":"36.347393"},{"name":"レッドバロン松本","address":"長野県松本市平田東3-5-17","longitude":"137.966567","latitude":"36.194841"},{"name":"レッドバロン諏訪店","address":"長野県諏訪市大字四賀69-1","longitude":"138.124947","latitude":"36.030104"},{"name":"レッドバロン東信","address":"長野県東御市滋野乙2231-2","longitude":"138.362376","latitude":"36.349669"},{"name":"レッドバロン飯田","address":"長野県飯田市上郷飯沼2236-1","longitude":"137.848943","latitude":"35.515436"},{"name":"レッドバロン新潟東","address":"新潟県新潟市東区中興野7番13号","longitude":"139.138979","latitude":"37.92195"},{"name":"レッドバロン新潟本店","address":"新潟県新潟市西区松美台1番2号","longitude":"138.994777","latitude":"37.895938"},{"name":"レッドバロン亀田店","address":"新潟県新潟市江南区亀田緑町3丁目1-39","longitude":"139.09894","latitude":"37.873131"},{"name":"レッドバロン燕三条","address":"新潟県燕市井土巻4丁目197","longitude":"138.93706","latitude":"37.655616"},{"name":"レッドバロン長岡","address":"新潟県長岡市高島町966-1","longitude":"138.826401","latitude":"37.393283"},{"name":"レッドバロン上越","address":"新潟県上越市下門前792-1","longitude":"138.251063","latitude":"37.163107"},{"name":"レッドバロン富山","address":"富山県富山市新庄町2-7-19","longitude":"137.25888","latitude":"36.70226"},{"name":"レッドバロン富山五福店","address":"富山県富山市五福2343-1","longitude":"137.193619","latitude":"36.6967"},{"name":"レッドバロン富山高岡店","address":"富山県高岡市戸出町3-5-76","longitude":"136.976569","latitude":"36.683618"},{"name":"レッドバロン七尾","address":"石川県七尾市千野町に55-1","longitude":"136.954791","latitude":"37.018331"},{"name":"レッドバロン金沢","address":"石川県金沢市法光寺町223","longitude":"136.683027","latitude":"36.603065"},{"name":"レッドバロン石川","address":"石川県野々市市二日市二丁目153番地","longitude":"136.599406","latitude":"36.537579"},{"name":"レッドバロン小松","address":"石川県小松市福乃宮町1丁目62","longitude":"136.4538","latitude":"36.393258"},{"name":"レッドバロン丸岡","address":"福井県坂井市丸岡町八ツ口21字13-2","longitude":"136.26402","latitude":"36.140116"},{"name":"レッドバロン福井","address":"福井県福井市今市町54-18","longitude":"136.205845","latitude":"36.017625"},{"name":"レッドバロン伊東","address":"静岡県伊東市八幡野1103-327","longitude":"139.112308","latitude":"34.887486"},{"name":"レッドバロン沼津","address":"静岡県沼津市緑ヶ丘3-2","longitude":"138.873449","latitude":"35.120393"},{"name":"レッドバロン富士","address":"静岡県富士市緑町1-30","longitude":"138.683244","latitude":"35.15944"},{"name":"レッドバロン清水","address":"静岡県静岡市清水区鶴舞町1-1","longitude":"138.474418","latitude":"35.018017"},{"name":"レッドバロン静岡１号店","address":"静岡県静岡市葵区古庄1丁目11-8","longitude":"138.423962","latitude":"34.99422"},{"name":"レッドバロン静岡","address":"静岡県静岡市駿河区石田3丁目5-30","longitude":"138.401036","latitude":"34.958098"},{"name":"レッドバロン藤枝","address":"静岡県藤枝市仮宿1658-7","longitude":"138.281927","latitude":"34.89369"},{"name":"レッドバロン牧之原","address":"静岡県牧之原市 細江2087-4","longitude":"138.239269","latitude":"34.75386"},{"name":"レッドバロン掛川","address":"静岡県掛川市成滝582-1","longitude":"138.030723","latitude":"34.778225"},{"name":"レッドバロン磐田","address":"静岡県磐田市岩井2007-20","longitude":"137.872723","latitude":"34.731279"},{"name":"レッドバロン浜北","address":"静岡県浜松市浜北区西美薗2495-2","longitude":"137.802572","latitude":"34.80922"},{"name":"レッドバロン浜松本店","address":"静岡県浜松市東区宮竹町699-3","longitude":"137.763038","latitude":"34.718696"},{"name":"レッドバロン浜松城北","address":"静岡県浜松市中区高林4-9-37","longitude":"137.732851","latitude":"34.730789"},{"name":"レッドバロン浜松西","address":"静岡県浜松市中区神田町408-2","longitude":"137.716261","latitude":"34.69116"},{"name":"レッドバロン豊橋","address":"愛知県豊橋市大岩町字小山塚70-1","longitude":"137.447605","latitude":"34.719924"},{"name":"レッドバロン東三河","address":"愛知県豊川市宿町古十王65-3","longitude":"137.361898","latitude":"34.802683"},{"name":"ヤマハオートセンター岡崎本店","address":"愛知県岡崎市大平町字市木28","longitude":"137.194896","latitude":"34.937405"},{"name":"レッドバロン豊田","address":"愛知県豊田市日之出町2丁目12-8","longitude":"137.162372","latitude":"35.088815"},{"name":"レッドバロン愛知高岡店","address":"愛知県豊田市堤本町広地37","longitude":"137.075673","latitude":"35.052102"},{"name":"レッドバロン豊田上郷店","address":"愛知県豊田市上郷町3丁目8-6","longitude":"137.130539","latitude":"35.008809"},{"name":"レッドバロン知立","address":"愛知県知立市山町小林17-8","longitude":"137.049902","latitude":"35.008144"},{"name":"レッドバロン安城","address":"愛知県安城市横山町寺下41-9","longitude":"137.070126","latitude":"34.96136"},{"name":"レッドバロン西尾","address":"愛知県西尾市矢曽根町下前田16","longitude":"137.050586","latitude":"34.854525"},{"name":"レッドバロン名古屋東","address":"愛知県長久手市東狭間1013","longitude":"137.041085","latitude":"35.171716"},{"name":"レッドバロン赤池","address":"愛知県日進市浅田平子3-313","longitude":"137.032389","latitude":"35.114299"},{"name":"レッドバロン名古屋南","address":"愛知県豊明市前後町三ツ谷1365-6","longitude":"136.987684","latitude":"35.059675"},{"name":"レッドバロン東海","address":"愛知県東海市加木屋町丸根3-1","longitude":"136.912934","latitude":"34.972507"},{"name":"レッドバロン半田","address":"愛知県半田市有楽町8-36-4","longitude":"136.91825","latitude":"34.870735"},{"name":"レッドバロン瀬戸","address":"愛知県瀬戸市共栄通3丁目41-1","longitude":"137.080393","latitude":"35.220697"},{"name":"レッドバロン春日井","address":"愛知県春日井市東野町5-18-24","longitude":"136.994059","latitude":"35.267224"},{"name":"レッドバロン小牧","address":"愛知県小牧市村中新町49-1","longitude":"136.906665","latitude":"35.295642"},{"name":"レッドバロン愛知北","address":"愛知県丹羽郡扶桑町柏森字長畑546-2","longitude":"136.902421","latitude":"35.352462"},{"name":"レッドバロン一宮","address":"愛知県一宮市昭和3-3-36","longitude":"136.783905","latitude":"35.291611"},{"name":"レッドバロン名岐・西春店","address":"愛知県愛知県北名古屋市中之郷栗島1","longitude":"136.845426","latitude":"35.246617"},{"name":"レッドバロン名古屋本店","address":"愛知県名古屋市北区丸新町87","longitude":"136.91022","latitude":"35.233708"},{"name":"レッドバロン守山","address":"愛知県名古屋市守山区森孝3丁目1031","longitude":"137.010702","latitude":"35.192845"},{"name":"レッドバロン今池","address":"愛知県名古屋市千種区神田町26-16","longitude":"136.939073","latitude":"35.174869"},{"name":"レッドバロン八事","address":"愛知県名古屋市昭和区山手通4-13-1","longitude":"136.966363","latitude":"35.141835"},{"name":"レッドバロン天白","address":"愛知県名古屋市天白区植田南2-103","longitude":"136.981639","latitude":"35.129338"},{"name":"レッドバロン野並","address":"愛知県名古屋市天白区井の森町209","longitude":"136.950876","latitude":"35.104369"},{"name":"レッドバロン中川","address":"愛知県名古屋市中川区昭和橋通2-20-4","longitude":"136.870283","latitude":"35.125196"},{"name":"レッドバロン津島","address":"愛知県津島市神尾町字野中107","longitude":"136.776709","latitude":"35.159266"},{"name":"レッドバロン高山","address":"岐阜県高山市新宮町3645-3","longitude":"137.219084","latitude":"36.137252"},{"name":"レッドバロン中津川","address":"岐阜県中津川市千旦林437-10","longitude":"137.477583","latitude":"35.47398"},{"name":"レッドバロン多治見","address":"岐阜県多治見市小田町4丁目15-1","longitude":"137.13009","latitude":"35.34098"},{"name":"レッドバロン可児店","address":"岐阜県可児市今渡1618-56","longitude":"137.051422","latitude":"35.43612"},{"name":"レッドバロン関","address":"岐阜県関市栄町5丁目1-90","longitude":"136.896199","latitude":"35.485819"},{"name":"レッドバロン各務原","address":"岐阜県各務原市那加住吉町4丁目48","longitude":"136.853255","latitude":"35.397631"},{"name":"レッドバロン岐阜","address":"岐阜県岐阜市正木西町10-1","longitude":"136.742976","latitude":"35.453238"},{"name":"レッドバロン大垣","address":"岐阜県大垣市安井町1-34-1","longitude":"136.628265","latitude":"35.354155"},{"name":"レッドバロン桑名","address":"三重県桑名市大字和泉字ニノ割430-1","longitude":"136.692881","latitude":"35.043722"},{"name":"レッドバロン四日市","address":"三重県四日市市金場町2-2","longitude":"136.634484","latitude":"34.985855"},{"name":"レッドバロン鈴鹿","address":"三重県鈴鹿市白子4-22-13","longitude":"136.582756","latitude":"34.831736"},{"name":"レッドバロン三重中央店","address":"三重県津市栗真小川町829-4","longitude":"136.528425","latitude":"34.773801"},{"name":"レッドバロン名張","address":"三重県名張市蔵持町原出569-1","longitude":"136.115272","latitude":"34.634768"},{"name":"レッドバロン松阪","address":"三重県松阪市小津町字高松535","longitude":"136.515662","latitude":"34.619181"},{"name":"レッドバロン伊勢","address":"三重県伊勢市竹ケ鼻町292-1","longitude":"136.73255","latitude":"34.50531"},{"name":"レッドバロン彦根","address":"滋賀県彦根市高宮町1733-12","longitude":"136.253967","latitude":"35.238612"},{"name":"レッドバロン近江八幡","address":"滋賀県近江八幡市上田町159-1","longitude":"136.119393","latitude":"35.110587"},{"name":"レッドバロン滋賀","address":"滋賀県守山市水保町1127-3","longitude":"135.95439","latitude":"35.10621"},{"name":"レッドバロン栗東","address":"滋賀県栗東市坊袋字道川原256-1","longitude":"135.981172","latitude":"35.022095"},{"name":"レッドバロン大津","address":"滋賀県大津市木下町18-21","longitude":"135.891809","latitude":"34.999759"},{"name":"レッドバロン福知山","address":"京都府福知山市かしの木台1丁目1-4","longitude":"135.097757","latitude":"35.322059"},{"name":"レッドバロン亀岡","address":"京都府亀岡市千代川町小林下戸30-7","longitude":"135.548005","latitude":"35.03812"},{"name":"レッドバロン山科","address":"京都府京都市山科区勧修寺東出町86","longitude":"135.811962","latitude":"34.959527"},{"name":"レッドバロン京都北","address":"京都府京都市左京区一乗寺北大丸町52","longitude":"135.785753","latitude":"35.045587"},{"name":"レッドバロン京都五条","address":"京都府京都市右京区西院六反田町23","longitude":"135.724602","latitude":"34.995877"},{"name":"レッドバロン京都南","address":"京都府京都市南区吉祥院石原堂ノ後町20","longitude":"135.728523","latitude":"34.966286"},{"name":"レッドバロン伏見","address":"京都府京都市伏見区中島樋ノ上町49","longitude":"135.745095","latitude":"34.945072"},{"name":"レッドバロン城陽","address":"京都府城陽市観音堂南田67-1","longitude":"135.792429","latitude":"34.834681"},{"name":"レッドバロン奈良24号店","address":"奈良県奈良市西九条町3-12-14","longitude":"135.799001","latitude":"34.65676"},{"name":"レッドバロン奈良店","address":"奈良県橿原市十市町839-5","longitude":"135.797246","latitude":"34.531213"},{"name":"レッドバロン枚方","address":"大阪府枚方市招提大谷2-1-27","longitude":"135.693306","latitude":"34.835092"},{"name":"レッドバロン枚方山之上店","address":"大阪府枚方市西田宮町14-4","longitude":"135.648742","latitude":"34.805161"},{"name":"レッドバロン高槻","address":"大阪府高槻市京口町9-10","longitude":"135.626019","latitude":"34.849326"},{"name":"レッドバロン大阪北店","address":"大阪府箕面市小野原東1-1-46","longitude":"135.517339","latitude":"34.835604"},{"name":"レッドバロン池田","address":"大阪府池田市木部町143-1","longitude":"135.426522","latitude":"34.836944"},{"name":"レッドバロン豊中","address":"大阪府豊中市服部南町3丁目5-18","longitude":"135.476388","latitude":"34.758994"},{"name":"レッドバロン吹田本店","address":"大阪府吹田市原町4-1-16","longitude":"135.52975","latitude":"34.773305"},{"name":"レッドバロン寝屋川","address":"大阪府寝屋川市仁和寺町31-46","longitude":"135.595967","latitude":"34.763866"},{"name":"レッドバロン東大阪","address":"大阪府東大阪市布市町3丁目10-27","longitude":"135.637338","latitude":"34.695066"},{"name":"レッドバロン大阪城東","address":"大阪府大阪市城東区古市3-16-10","longitude":"135.559011","latitude":"34.715024"},{"name":"レッドバロン西淀川","address":"大阪府大阪市西淀川区花川2丁目4-23","longitude":"135.463672","latitude":"34.705959"},{"name":"レッドバロン高井田","address":"大阪府東大阪市高井田28-14","longitude":"135.572937","latitude":"34.67825"},{"name":"レッドバロン八尾","address":"大阪府八尾市楠根町4-13-1","longitude":"135.602732","latitude":"34.642482"},{"name":"レッドバロン藤井寺","address":"大阪府藤井寺市大井1丁目1-6","longitude":"135.606893","latitude":"34.577446"},{"name":"レッドバロン堺","address":"大阪府堺市堺区高須町2-2-6","longitude":"135.488859","latitude":"34.589479"},{"name":"レッドバロン泉北","address":"大阪府堺市中区深井北町3272-1","longitude":"135.490916","latitude":"34.540874"},{"name":"レッドバロン大阪狭山","address":"大阪府大阪狭山市茱萸木2-451-1","longitude":"135.550663","latitude":"34.490461"},{"name":"レッドバロン岩出","address":"和歌山県岩出市西国分698-3","longitude":"135.332506","latitude":"34.264062"},{"name":"レッドバロン和歌山","address":"和歌山県和歌山市堀止南ノ丁5-16","longitude":"135.17057","latitude":"34.212702"},{"name":"レッドバロン兵庫東","address":"兵庫県尼崎市西昆陽3-4-8","longitude":"135.382372","latitude":"34.772881"},{"name":"レッドバロン尼崎","address":"兵庫県尼崎市名神町1丁目18-13","longitude":"135.414709","latitude":"34.743542"},{"name":"レッドバロン西宮","address":"兵庫県西宮市本町3-6","longitude":"135.343644","latitude":"34.733685"},{"name":"レッドバロン神戸東","address":"兵庫県神戸市灘区記田町3-3-21","longitude":"135.246792","latitude":"34.714358"},{"name":"レッドバロン神戸長田","address":"兵庫県神戸市長田区梅ヶ香町2丁目8-5","longitude":"135.159233","latitude":"34.662262"},{"name":"レッドバロン鈴蘭台","address":"兵庫県神戸市北区星和台1丁目34-8","longitude":"135.126822","latitude":"34.721274"},{"name":"レッドバロン神戸名谷店","address":"兵庫県神戸市垂水区名谷町室山1400-17","longitude":"135.065488","latitude":"34.664763"},{"name":"レッドバロン神戸垂水","address":"兵庫県神戸市西区伊川谷町有瀬991-5","longitude":"135.014717","latitude":"34.66099"},{"name":"レッドバロン明石","address":"兵庫県明石市魚住町金ヶ崎字大池東63-6","longitude":"134.930716","latitude":"34.688414"},{"name":"レッドバロン加古川","address":"兵庫県加古川市野口町坂元字住塚63-1","longitude":"134.84754","latitude":"34.757552"},{"name":"レッドバロン兵庫西","address":"兵庫県姫路市保城679-4","longitude":"134.720984","latitude":"34.857465"},{"name":"レッドバロン姫路","address":"兵庫県姫路市中地南町103-1","longitude":"134.667189","latitude":"34.81635"},{"name":"レッドバロン鳥取","address":"鳥取県鳥取市南隈893番地","longitude":"134.197697","latitude":"35.519819"},{"name":"レッドバロン米子","address":"鳥取県米子市淀江町中間787-1","longitude":"133.403912","latitude":"35.448496"},{"name":"レッドバロン松江","address":"島根県松江市東津田町1887-5","longitude":"133.100384","latitude":"35.452487"},{"name":"レッドバロン津山","address":"岡山県津山市高野本郷1700-2","longitude":"134.059047","latitude":"35.074494"},{"name":"レッドバロン岡山本店","address":"岡山県岡山市南区西市98-2","longitude":"133.904994","latitude":"34.631804"},{"name":"レッドバロン岡山中庄店","address":"岡山県岡山市北区撫川1477-1","longitude":"133.838648","latitude":"34.643814"},{"name":"レッドバロン倉敷","address":"岡山県倉敷市新田2891-1","longitude":"133.776421","latitude":"34.580963"},{"name":"レッドバロン新倉敷２号店","address":"岡山県倉敷市新倉敷駅前3丁目131","longitude":"133.682607","latitude":"34.561527"},{"name":"レッドバロン福山","address":"広島県福山市明神町2-16-20","longitude":"133.399242","latitude":"34.489991"},{"name":"レッドバロン東尾道","address":"広島県福山市高西町3丁目2-52","longitude":"133.23903","latitude":"34.444701"},{"name":"レッドバロン広島","address":"広島県広島市安佐南区西原4-35-16","longitude":"132.465161","latitude":"34.434201"},{"name":"レッドバロン広島南","address":"広島県広島市南区仁保新町2丁目2-1","longitude":"132.496591","latitude":"34.375925"},{"name":"レッドバロン広島本店","address":"広島県広島市中区吉島西2丁目13-38","longitude":"132.444329","latitude":"34.373376"},{"name":"レッドバロン五日市","address":"広島県広島市佐伯区五日市中央7丁目4-10","longitude":"132.360478","latitude":"34.380598"},{"name":"レッドバロン周南","address":"山口県下松市南花岡3丁目12-24","longitude":"131.86679","latitude":"34.032596"},{"name":"レッドバロン山口","address":"山口県山口市緑町3-33","longitude":"131.465579","latitude":"34.170098"},{"name":"レッドバロン宇部","address":"山口県宇部市下条2丁目2-10","longitude":"131.243159","latitude":"33.963768"},{"name":"レッドバロン下関","address":"山口県下関市山の田本町7-1","longitude":"130.928271","latitude":"33.990381"},{"name":"レッドバロン徳島","address":"徳島県徳島市沖浜1丁目26","longitude":"134.553071","latitude":"34.054216"},{"name":"レッドバロン高松","address":"香川県高松市林町1494-1","longitude":"134.072335","latitude":"34.301705"},{"name":"レッドバロン高松香西店","address":"香川県高松市西宝町3丁目10-16","longitude":"134.021775","latitude":"34.344697"},{"name":"レッドバロン香川西店","address":"香川県丸亀市土器町西3丁目29","longitude":"133.811515","latitude":"34.27753"},{"name":"レッドバロン新居浜","address":"愛媛県新居浜市大生院942-1","longitude":"133.249166","latitude":"33.921591"},{"name":"レッドバロン今治","address":"愛媛県今治市東村南1丁目5-43","longitude":"133.03281","latitude":"34.037067"},{"name":"レッドバロン松山北環状店","address":"愛媛県松山市久万ノ台5-2","longitude":"132.749112","latitude":"33.858802"},{"name":"レッドバロン松山","address":"愛媛県松山市来住町244-1","longitude":"132.804835","latitude":"33.808559"},{"name":"レッドバロン高知","address":"高知県高知市南御座14-16","longitude":"133.560382","latitude":"33.5661"},{"name":"レッドバロン小倉南","address":"福岡県北九州市小倉南区葛原本町1-8-33","longitude":"130.920488","latitude":"33.841495"},{"name":"レッドバロン戸畑","address":"福岡県北九州市戸畑区金比羅町1-30","longitude":"130.840364","latitude":"33.881015"},{"name":"レッドバロン八幡","address":"福岡県北九州市八幡西区瀬板1-13-12","longitude":"130.737495","latitude":"33.864373"},{"name":"レッドバロン福岡東","address":"福岡県糟屋郡新宮町三代731-5","longitude":"130.45223","latitude":"33.698487"},{"name":"レッドバロン粕屋店","address":"福岡県糟屋郡粕屋町大字仲原2531-3","longitude":"130.456845","latitude":"33.61045"},{"name":"レッドバロン福岡箱崎店","address":"福岡県福岡市東区馬出3丁目12-29","longitude":"130.414364","latitude":"33.613987"},{"name":"レッドバロン福岡中央店","address":"福岡県福岡市中央区小笹1-17-26","longitude":"130.389515","latitude":"33.561649"},{"name":"レッドバロン福岡","address":"福岡県福岡市西区今宿東3-39-11","longitude":"130.285006","latitude":"33.573557"},{"name":"レッドバロン博多","address":"福岡県春日市岡本1-109","longitude":"130.450957","latitude":"33.540674"},{"name":"レッドバロン筑紫野","address":"福岡県筑紫野市武蔵3丁目10-3","longitude":"130.517285","latitude":"33.484375"},{"name":"レッドバロン久留米","address":"福岡県久留米市東合川7-12-28","longitude":"130.552991","latitude":"33.322078"},{"name":"レッドバロン佐賀","address":"佐賀県佐賀市鍋島町大字森田83-2","longitude":"130.270865","latitude":"33.270969"},{"name":"レッドバロン唐津","address":"佐賀県佐賀県唐津市鏡字立神4642-1","longitude":"130.014527","latitude":"33.435819"},{"name":"レッドバロン佐世保","address":"長崎県佐世保市田の浦町5-11","longitude":"129.786139","latitude":"33.1438"},{"name":"レッドバロン大村","address":"長崎県大村市大川田町876-1","longitude":"129.946535","latitude":"32.941831"},{"name":"レッドバロン長崎","address":"長崎県長崎市中里町1304-1","longitude":"129.964301","latitude":"32.806432"},{"name":"レッドバロン女神大橋","address":"長崎県長崎市戸町4-27-16","longitude":"129.856836","latitude":"32.72064"},{"name":"レッドバロン大分東","address":"大分県大分市志村2-2-30","longitude":"131.70538","latitude":"33.24188"},{"name":"レッドバロン大分","address":"大分県大分市椎迫1組-1","longitude":"131.586162","latitude":"33.225361"},{"name":"レッドバロン大分南","address":"大分県大分市下判田2243-2","longitude":"131.64604","latitude":"33.162642"},{"name":"レッドバロン荒尾","address":"熊本県荒尾市原万田712","longitude":"130.43886","latitude":"33.002022"},{"name":"レッドバロン熊本北","address":"熊本県熊本市北区大窪4-2-1","longitude":"130.715339","latitude":"32.84694"},{"name":"レッドバロン熊本東","address":"熊本県熊本市東区御領8-1-13","longitude":"130.76733","latitude":"32.827769"},{"name":"レッドバロン熊本","address":"熊本県熊本市中央区本山4-2-10","longitude":"130.701571","latitude":"32.789854"},{"name":"レッドバロン延岡","address":"宮崎県延岡市別府町3340","longitude":"131.683892","latitude":"32.569415"},{"name":"レッドバロン宮崎神宮店","address":"宮崎県宮崎市神宮東3丁目1-7","longitude":"131.429775","latitude":"31.93689"},{"name":"レッドバロン都城","address":"宮崎県都城市下長飯町364-3","longitude":"131.055719","latitude":"31.710166"},{"name":"レッドバロン国分","address":"鹿児島県霧島市国分中央6丁目1-10","longitude":"130.768016","latitude":"31.735185"},{"name":"レッドバロン鹿児島","address":"鹿児島県鹿児島市城南町2-24","longitude":"130.561587","latitude":"31.580653"},{"name":"レッドバロン鹿児島南","address":"鹿児島県鹿児島市東開町4-99","longitude":"130.534572","latitude":"31.535834"}]
